FID_1,stop_id,stop_lat,stop_lon,stop_code,stop_name,tts_stop_n,stop_desc,zone_id,location_type,parent_station
90,440,9.366291222,35.5947073,ET2021A3040106,Bogi,,,4,1,
213,342,8.723018999,40.64359032,ET2021A3040910,Boke Tiko,,,4,1,
397,172,7.135706703,37.58154892,ET2021A3070608,Bombe,,,7,1,
383,105,6.52668733,38.70949959,ET2021A3160017,Bona Kebalenka,,,7,1,
108,360,8.889111,36.993149,ET2021A3040205,Bilo,,,4,1,
422,188,7.262777531,36.24672584,ET2021A3070911,Bonga,,,11,1,
183,296,8.297542065,38.9486104,ET2021A3040710,Alem Tena,,,4,1,
265,62,6.365545,38.62027,ET2021A3041402,Bore,,,4,1,
312,288,8.244238359,36.60318464,ET2021A3041607,Yanfa,,,4,1,
425,70,6.470215318,37.63250238,ET2021A3071004,Zefine,,,7,1,
14,546,10.74999509,38.76021007,ET2021A3030412,Mekane Selam,,,3,1,
377,135,6.922828343,38.36644332,ET2021A3160010,YIrba,,,7,1,
178,337,8.659966035,39.42877127,ET2021A3040702,Welench'iti,,,4,1,
313,310,8.365617307,37.27458921,ET2021A3040495,Boter Becho,,,4,1,
346,301,8.316667,38.55,ET2021A3070117,Bu'i,,,7,1,
389,92,6.302414995,38.40673826,ET2021A3070504,Bule,,,7,1,
245,34,5.631890496,38.23876155,ET2021A3041587,Bule Hora,,,4,1,
435,89,6.285653177,36.81161985,ET2021A3071508,Bulk'i,,,7,1,
65,522,10.48382853,37.02096567,ET2021A3030710,Kuchi,,,3,1,
126,290,8.238540084,35.23959346,ET2021A3040312,Sibo,,,4,1,
64,543,10.7038233,37.06010536,ET2021A3030798,Bure,,,3,1,
443,29,5.484113764,37.85946891,ET2021A3072203,Soyoma,,,7,1,
320,298,8.323216368,41.0831649,ET2021A3040998,Tefe,,,4,1,
381,108,6.589725756,38.60304484,ET2021A3160015,Bursa,,,7,1,
356,273,8.119043313,38.37779185,ET2021A3070115,Butajera,,,7,1,
468,67,6.426036534,38.85571897,ET2021A3160029,Chebe,,,7,1,
72,559,10.95501644,36.50684397,ET2021A3030999,Chagini,,,3,1,
387,40,5.998862606,38.15198591,ET2021A3070508,Chelelektu,,,7,1,
149,379,9.01337013,37.44917763,ET2021A3040505,Gedo,,,4,1,
427,85,6.243439703,37.57760083,ET2021A3071010,Chencha,,,7,1,
416,145,6.979624001,36.302036,ET2021A3070907,Shama,,,11,1,
226,453,9.504513435,42.61212109,ET2021A3041015,Chinaksen,,,4,1,
209,407,9.083333,40.866667,ET2021A3040905,Chiro,,,4,1,
191,277,8.139593579,39.90192743,ET2021A3040809,Ch'ole,,,4,1,
119,309,8.361805,36.12057889,ET2021A3041603,Kumbabe,,,4,1,
382,111,6.587157503,38.33637982,ET2021A3160035,Ch'iko,,,7,1,
132,365,8.913439075,36.15630192,ET2021A3041623,Ilu Harer,,,4,1,
147,432,9.331655,37.950321,ET2021A3040592,Ch'obi,,,4,1,
121,340,8.685892752,36.2890958,ET2021A3041605,Kone,,,4,1,
296,364,8.905677701,35.22585948,ET2021A3041808,Alem Teferi,,,4,1,
9,533,10.61725074,40.31231618,ET2021A3020504,Dalifagi,,,2,1,
461,242,7.790137872,38.24388897,ET2021A3072005,Dalocha,,,7,1,
334,87,6.257911937,38.48254022,ET2021A3041408,Afele Kola,,,4,1,
368,197,7.343041867,37.94919243,ET2021A3070307,Demboya,,,7,1,
399,151,7.023453222,37.85982489,ET2021A3070611,Shanito,,,7,1,
393,131,6.871393004,37.93890633,ET2021A3070603,Bedesa,,,7,1,
69,571,11.25948813,36.83993753,ET2021A3030998,Dengila,,,3,1,
152,346,8.764932723,37.26344261,ET2021A3040507,Seyo,,,4,1,
374,98,6.473137559,38.34081458,ET2021A3160006,Kebado,,,7,1,
418,101,6.501011025,38.39231621,ET2021A3160025,Teferi Kela,,,7,1,
430,96,6.3289353,37.30366619,ET2021A3071009,Wacha,,,7,1,
378,128,6.846129777,38.29815269,ET2021A3160033,Derara,,,7,1,
310,330,8.583838253,35.51013113,ET2021A3040301,Duba,,,4,1,
212,327,8.572875913,40.31640973,ET2021A3040909,Mich'eta,,,4,1,
407,12,4.811045,36.05151944,ET2021A3070706,Omorate,,,7,1,
7,549,10.81150061,40.18094388,ET2021A3020503,Wedarage,,,2,1,
255,349,8.775777997,38.14664081,ET2021A3041304,Busa,,,4,1,
375,103,6.519948335,38.82731328,ET2021A3160030,Daye,,,7,1,
337,536,10.7761783,36.26319843,ET2021A3060205,Dibate,,,6,1,
49,523,10.50231061,37.99223296,ET2021A3030607,Kuy,,,3,1,
40,472,9.67011834,39.52785099,ET2021A3030520,Debre Birhan,,,3,1,
50,511,10.29919411,37.46436655,ET2021A3030608,Debre Eliyas,,,3,1,
168,468,9.632192878,38.83029658,ET2021A3040607,Debre Tsege,,,4,1,
57,513,10.33207222,37.72834,ET2021A3030615,Debre Markos,,,3,1,
347,291,8.255748495,38.49599613,ET2021A3070119,Kela,,,7,1,
417,169,7.116667,36.183333,ET2021A3070908,Ch'iri  /Awrada,,,11,1,
222,426,9.310736279,41.44372179,ET2021A3041097,Deder,,,4,1,
123,270,8.079899404,36.45991594,ET2021A3041608,Dembi,,,4,1,
138,213,7.508912364,36.87306545,ET2021A3040410,Dedo,,,4,1,
120,329,8.578804,36.110008,ET2021A3041604,Dega,,,4,1,
81,550,10.84869,37.594898,ET2021A3030707,Feres Bet,,,3,1,
196,238,7.755029528,39.15513524,ET2021A3040815,Sagure,,,4,1,
167,480,9.811113906,38.63485158,ET2021A3040605,Degem,,,4,1,
55,502,10.1679582,38.14478488,ET2021A3030698,Dejen,,,3,1,
343,471,9.647882381,35.77100783,ET2021A3060404,Dembe /Meti,,,6,1,
62,527,10.56757556,37.48130167,ET2021A3030717,Dembech'a,,,3,1,
294,326,8.528842,34.79673,ET2021A3041806,Dembi Dolo,,,4,1,
155,398,9.028043329,38.14146685,ET2021A3040510,Ginchi,,,4,1,
165,504,10.22189147,38.69939199,ET2021A3040602,Gundo Meskel,,,4,1,
446,35,5.64939,37.36356,ET2021A3072304,Ghidolie,,,7,1,
20,567,11.12813,39.631321,ET2021A3030418,Dessie,,,3,1,
78,539,10.68412781,40.04300518,ET2021A3031005,Bora,,,3,1,
332,5,4.220965823,38.71908272,ET2021A3041220,Sogiya,,,4,1,
113,402,9.041858705,36.25134207,ET2021A3040210,Arjo Gudetu,,,4,1,
201,268,8.058168265,39.55652441,ET2021A3040822,Hamda Diksis,,,4,1,
390,65,6.406346343,38.31179471,ET2021A3070507,Dila,,,7,1,
330,6,4.261182494,37.70095316,ET2021A3041219,Dilo,,,4,1,
486,102,6.507296806,35.1826088,ET2021A3120205,Dima,,,12,1,
302,473,9.686335834,37.53893064,ET2021A3041904,Dadu,,,4,1,
497,430,9.311616748,42.12082091,ET2021A3130109,Harar,,,13,1,
303,461,9.56444926,37.35950352,ET2021A3041905,Finchaa,,,4,1,
249,61,6.35707235,38.28355489,ET2021A3041513,Gwangwa,,,4,1,
308,467,9.608696898,36.93390864,ET2021A3041910,Tulu Wayo,,,4,1,
82,71,13.02894104,38.97903808,ET2021A3030805,Nuraqua,,,2,1,
170,470,9.654501001,39.31426628,ET2021A3040609,Mendida,,,4,1,
484,257,7.8958028,34.54257328,ET2021A3120201,Abobo,,,12,1,
160,466,9.609111056,37.98545436,ET2021A3040516,Beke Qelate,,,4,1,
288,146,7.00793955,39.39215931,ET2021A3041710,Adaba,,,4,1,
276,325,8.540127778,39.26666056,ET2021A3040714,Nazareth,,,4,1,
184,260,7.934518334,38.71492389,ET2021A3040708,Ziway,,,4,1,
157,427,9.316890889,38.37616151,ET2021A3040513,Inchini,,,4,1,
499,465,9.592852778,41.8604,ET2021A3150109,Dire Dawa,,,15,1,
414,190,7.283333,36.566667,ET2021A3070905,Adiyakaka,,,11,1,
267,84,5.877322,38.989212,ET2021A3041492,Adola/Kibre Mengist,,,4,1,
270,31,5.531473025,38.80812658,ET2021A3041482,Hiyadima,,,4,1,
230,189,7.277724032,39.8234568,ET2021A3041104,Agafra,,,4,1,
144,252,7.853374721,36.58721711,ET2021A3040417,Agaro,,,4,1,
495,249,7.812302711,33.05063195,ET2021A3120101,Tierguol,,,12,1,
80,548,10.80607768,39.63290339,ET2021A3030408,Degaga,,,3,1,
125,281,8.151494682,35.53610517,ET2021A3040311,Gore,,,4,1,
175,392,9.19603758,39.15026896,ET2021A3040617,Alaltu,,,4,1,
23,497,10.06075619,38.99255851,ET2021A3030599,Alem Ketema,,,3,1,
373,113,6.60054495,38.42066557,ET2021A3160021,Wendo,,,7,1,
311,321,8.515669,35.660999,ET2021A3040302,Supe,,,4,1,
442,82,5.834462034,37.89735237,ET2021A3072102,Kele,,,7,1,
159,373,8.980418271,37.85106452,ET2021A3040515,Ambo,,,4,1,
253,331,8.593235374,37.75378938,ET2021A3041301,Gindo,,,4,1,
2,422,9.279833212,40.22373302,ET2021A3020301,Berta,,,2,1,
307,494,9.98975788,37.03065135,ET2021A3041909,Abora,,,4,1,
266,55,6.210177786,38.70766056,ET2021A3041411,Yirba Moda,,,4,1,
362,227,7.647522778,37.96627,ET2021A3070208,Fonko,,,7,1,
210,339,8.692767345,40.23529396,ET2021A3040906,Ch'elelek'a,,,4,1,
473,239,7.746691726,35.47540986,ET2021A3070801,Masha,,,11,1,
59,506,10.25200518,37.84345531,ET2021A3030617,Amber,,,3,1,
295,332,8.571162413,34.6020491,ET2021A3041807,Mugi,,,4,1,
365,196,7.33957376,37.858788,ET2021A3070302,Angacha,,,7,1,
34,455,9.532870208,39.45376804,ET2021A3030513,Ch'ach'a,,,3,1,
83,537,10.66403,36.78001,ET2021A3030903,Azena,,,3,1,
36,463,9.595519061,39.73368576,ET2021A3030515,Gorabel,,,3,1,
28,541,10.69682751,39.78121688,ET2021A3030507,Mekoy,,,3,1,
436,42,6.011019444,37.53800556,ET2021A3071021,Arba Minch,,,7,1,
371,116,6.693264031,38.71862214,ET2021A3160003,Yaye,,,7,1,
391,159,7.065711704,37.70718796,ET2021A3070614,Areka,,,7,1,
247,10,4.743319469,38.82842046,ET2021A3041208,Meta Gefersa,,,4,1,
85,556,10.92079395,40.00555154,ET2021A3030401,Medina,,,3,1,
5,456,9.544380731,39.8783372,ET2021A3020306,Gachine,,,2,1,
376,63,6.374398232,38.95548248,ET2021A3160009,Mejo,,,7,1,
280,200,7.355432637,38.67073907,ET2021A3041799,Negele,,,4,1,
77,526,10.55287621,39.93638819,ET2021A3031004,Chef Robit,,,3,1,
186,319,8.503037873,40.02424525,ET2021A3040802,Aseko,,,4,1,
204,262,7.946823889,39.13301111,ET2021A3040825,Asela,,,4,1,
35,433,9.338135877,39.57476568,ET2021A3030514,Ginager,,,3,1,
339,498,10.06453838,34.53830475,ET2021A3060303,Asosa,,,6,1,
29,514,10.34602783,39.9591429,ET2021A3030598,Epheson /Ataye,,,3,1,
54,507,10.25235123,37.93890778,ET2021A3030612,Lumamie /Dengora,,,3,1,
1,374,8.992102973,40.16659414,ET2021A3020396,Awash sebat kilo,,,2,1,
219,436,9.357282822,42.04380545,ET2021A3041099,Aweday,,,4,1,
71,552,10.85125178,36.89556364,ET2021A3030908,Gimija Bet,,,3,1,
92,410,9.094664216,35.39651364,ET2021A3040107,Ayira,,,4,1,
217,417,9.22470165,42.33490785,ET2021A3041000,Babile,,,4,1,
96,448,9.469855,35.195499,ET2021A3040111,Debeka,,,4,1,
151,381,9.119362,37.058552,ET2021A3040506,Baco,,,4,1,
341,476,9.755153888,34.72896222,ET2021A3060305,Bambasi,,,6,1,
454,93,6.300832228,36.62746501,ET2021A3071601,Balma,,,7,1,
53,500,10.15157285,37.74454797,ET2021A3030611,Yejube,,,3,1,
76,568,11.19057999,40.02022895,ET2021A3031099,Bati,,,3,1,
48,521,10.44783,38.202679,ET2021A3030699,Bichena,,,3,1,
127,284,8.206270422,35.68316653,ET2021A3040314,Baccio,,,4,1,
259,336,8.660401657,38.21263896,ET2021A3041309,Tulu Bolo,,,4,1,
131,316,8.45561881,36.35116804,ET2021A3041621,Bedele,,,4,1,
224,411,9.11144981,41.6332522,ET2021A3041013,Bedeno,,,4,1,
321,362,8.89614,40.776199,ET2021A3040914,Bedesa,,,4,1,
101,438,9.342198,34.52737,ET2021A3040116,Begi,,,4,1,
198,215,7.533333,39.25,ET2021A3040894,Bek'oji,,,4,1,
202,235,7.732271726,39.99752788,ET2021A3040823,Bale,,,4,1,
472,30,5.521180278,36.73413778,ET2021A3070705,Key Afer,,,7,1,
237,121,6.747733405,40.17344972,ET2021A3041114,Haro Dumal,,,4,1,
38,393,9.196143798,39.70688218,ET2021A3030517,Meteteh Bila,,,3,1,
479,88,6.241317918,35.23491632,ET2021A3071805,Jeba,,,11,1,
43,551,10.85049115,37.7389889,ET2021A3030601,Digua Tseyon,,,3,1,
110,413,9.209147,37.06699,ET2021A3040207,Jere,,,4,1,
379,137,6.938849205,38.25159238,ET2021A3160032,Bolela 01,,,7,1,
182,344,8.746812344,38.98891294,ET2021A3040709,Debre Zeyt,,,4,1,
421,191,7.273685882,35.7728305,ET2021A3070910,Bitagenet,,,11,1,
392,139,6.955178468,37.85627647,ET2021A3070615,Boditi,,,7,1,
95,428,9.300930534,35.55664483,ET2021A3040110,Muklemi,,,4,1,
244,164,7.104955574,39.77956239,ET2021A3041122,Dinsho,,,4,1,
331,3,4.058027902,38.32131092,ET2021A3041211,Mega,,,4,1,
482,124,6.8076184,37.145664,ET2021A3071709,Disa,,,11,1,
429,91,6.307722698,37.48845944,ET2021A3071008,Zada,,,7,1,
206,424,9.285758704,41.09117756,ET2021A3040902,Doba,,,4,1,
285,142,6.974865042,39.1851462,ET2021A3041700,Dodola,,,4,1,
188,302,8.324894103,39.32037631,ET2021A3040805,Dera,,,4,1,
367,199,7.351036389,37.78203103,ET2021A3070306,Doyo Gena,,,7,1,
333,7,4.365455165,38.28025313,ET2021A3041291,Dubuluk,,,4,1,
181,280,8.145759593,38.81851925,ET2021A3040707,Maki,,,4,1,
250,21,5.394608257,38.27164205,ET2021A3041515,Finchawa,,,4,1,
400,140,6.964755625,38.03139171,ET2021A3070612,Bitena,,,7,1,
4,457,9.547204598,39.94238242,ET2021A3020304,Dulecha,,,2,1,
361,195,7.333284142,37.65150923,ET2021A3070207,Ansho,,,7,1,
369,185,7.23859889,37.89275389,ET2021A3070308,Durame,,,7,1,
156,401,9.049273782,38.3956953,ET2021A3040511,Adis Alem,,,4,1,
328,14,4.962068312,37.89020229,ET2021A3041295,Elweya,,,4,1,
352,272,8.120568674,37.9249255,ET2021A3070116,Indibir,,,7,1,
47,535,10.65450059,38.16670016,ET2021A3030605,Dabra Wark',,,3,1,
350,247,7.84628122,37.83369111,ET2021A3070108,Dinkula,,,7,1,
46,555,10.86971051,38.27415983,ET2021A3030604,Merito Lemariyam,,,3,1,
353,267,8.029397182,37.84054396,ET2021A3070111,Gunchire,,,7,1,
354,254,7.868379845,37.73290822,ET2021A3070120,K'osa,,,7,1,
24,478,9.799270725,38.91020703,ET2021A3030503,Lemi,,,3,1,
344,278,8.136511062,38.01153788,ET2021A3070103,Agena,,,7,1,
428,60,6.350869623,37.59589299,ET2021A3071007,Ezo,,,7,1,
74,566,11.07891,36.885311,ET2021A3030905,Adis Kidame,,,3,1,
218,384,9.132659175,42.07766652,ET2021A3041005,Boko,,,4,1,
173,477,9.797621,38.73473,ET2021A3040613,Fiche,,,4,1,
68,540,10.6837736,37.25889195,ET2021A3030714,Finote Selam,,,3,1,
98,403,9.036798591,35.61929221,ET2021A3040113,Gengi,,,4,1,
487,292,8.248885531,34.58697413,ET2021A3120206,Gambela,,,12,1,
492,287,8.225585002,34.43564714,ET2021A3120202,Abole,,,12,1,
232,202,7.366667,40.183333,ET2021A3041106,Gasera,,,4,1,
293,375,8.976533,34.96843,ET2021A3041804,Kebe,,,4,1,
122,304,8.330300009,36.41862797,ET2021A3041606,Gechi,,,4,1,
284,165,7.102642096,39.19323637,ET2021A3041706,Asasa,,,4,1,
471,38,5.901556,38.252316,ET2021A3070511,Gedeb,,,7,1,
345,313,8.406654315,38.23228706,ET2021A3070104,Mehal Amba,,,7,1,
252,23,5.937369312,38.15677723,ET2021A3041517,Tore,,,4,1,
214,377,9.002029141,40.88347658,ET2021A3040912,Kuni,,,4,1,
483,184,7.242202285,37.26783791,ET2021A3071704,Weldane,,,11,1,
137,240,7.75,36.25,ET2021A3040408,Chira,,,4,1,
434,22,5.916667,37.3,ET2021A3071013,Gerese,,,7,1,
411,222,7.592332874,35.75727072,ET2021A3070902,Deke,,,11,1,
396,119,6.725443963,37.55773391,ET2021A3070617,Gesuba,,,7,1,
3,501,10.15836461,40.66110064,ET2021A3020303,Gewane,,,2,1,
412,223,7.600448749,36.00375192,ET2021A3070903,Konda,,,11,1,
357,232,7.688592638,37.71792697,ET2021A3070210,Homecho,,,7,1,
107,462,9.574387951,36.63303357,ET2021A3040203,Gutin,,,4,1,
297,378,8.990464571,34.60182609,ET2021A3041809,Gidam,,,4,1,
102,389,9.168154444,35.83377833,ET2021A3040193,Gimbi,,,4,1,
317,369,8.96647054,39.11845963,ET2021A3040705,Chaffe Donsa,,,4,1,
359,209,7.448079469,37.62646286,ET2021A3070213,Gimbichu,,,7,1,
413,205,7.394722671,36.22501252,ET2021A3070904,Uffa,,,11,1,
145,464,9.598017295,37.83874748,ET2021A3040501,Ginde Beret,,,4,1,
234,170,7.125928525,40.71748753,ET2021A3042107,Ginir,,,4,1,
227,383,9.135909793,41.83395985,ET2021A3041016,Girawa,,,4,1,
274,51,6.116725061,39.09466173,ET2021A3041410,Haranfema,,,4,1,
27,525,10.55,39.6,ET2021A3030506,Rabel,,,3,1,
474,141,6.9591981,36.1912651,ET2021A3070912,Dishi,,,11,1,
319,368,8.95,40.55,ET2021A3040907,Guba K'oricha,,,4,1,
243,147,6.994802427,39.97760124,ET2021A3041120,Goba,,,4,1,
111,408,9.090611554,36.95662938,ET2021A3040208,Ano,,,4,1,
490,186,7.2353625,35.3182755,ET2021A3120301,Tilk'u Met'i,,,12,1,
485,228,7.63886877,34.25146891,ET2021A3120203,Pugnido,,,12,1,
187,289,8.25,40.133333,ET2021A3040803,Chancho/ Debre Selam,,,4,1,
231,201,7.369001869,40.49811903,ET2021A3042101,Jara,,,4,1,
327,17,5.129846952,38.29936219,ET2021A3041223,Surupa,,,4,1,
45,558,10.92422236,38.08797693,ET2021A3030603,Gundwoin,,,3,1,
67,569,11.21868225,37.6758169,ET2021A3030718,Gonji,,,3,1,
478,112,6.583333,35.466667,ET2021A3071803,Gesha,,,11,1,
239,144,6.993235535,40.48861278,ET2021A3041116,Goro,,,4,1,
261,312,8.400340406,37.86877022,ET2021A3041312,Gora,,,4,1,
75,553,10.85185461,37.02191711,ET2021A3030907,Tilili,,,3,1,
94,444,9.398119842,34.62413172,ET2021A3040109,Gebadefeno,,,4,1,
301,450,9.510288891,37.47966444,ET2021A3041903,Kombolchaa,,,4,1,
91,388,9.163485024,35.46395286,ET2021A3040119,Guliso,,,4,1,
351,261,7.935230453,38.06966498,ET2021A3070109,Areket,,,7,1,
398,136,6.926647533,37.6541549,ET2021A3070618,Gununo,,,7,1,
238,126,6.837897001,40.39924798,ET2021A3041115,Raytu,,,4,1,
216,437,9.354094433,42.39784824,ET2021A3041003,Gursum,,,4,1,
52,518,10.44105992,37.88899152,ET2021A3030610,Yebok'la,,,3,1,
211,351,8.816622848,40.52446044,ET2021A3040908,Gelemso,,,4,1,
37,412,9.210382063,39.40278932,ET2021A3030516,Sholagebeya,,,3,1,
129,283,8.1786162,35.35326729,ET2021A3040319,Abiyu,,,4,1,
273,39,5.993855403,38.42741464,ET2021A3041509,Hambela,,,4,1,
406,18,5.172604971,36.54529847,ET2021A3070704,Dimeka,,,7,1,
0,442,9.400356124,40.32919619,ET2021A3020307,Andido,,,2,1,
235,64,6.405104161,39.58716202,ET2021A3041111,Angetu,,,4,1,
99,376,8.987482606,35.82324069,ET2021A3040114,Guyi,,,4,1,
290,341,8.687562942,34.88080714,ET2021A3041801,Rob Gebeya,,,4,1,
465,138,6.956157785,38.47659109,ET2021A3160018,Tula,,,7,1,
281,206,7.425454717,38.8172968,ET2021A3041783,Golije,,,4,1,
500,206,7.425454717,38.8172968,ET2021A304178301,Golije,,,1,1,
189,275,8.128407328,39.23259972,ET2021A3040807,Etaya,,,4,1,
469,58,6.244148255,38.93461609,ET2021A3160031,Girja,,,7,1,
164,404,9.067672791,38.49244597,ET2021A3042020,Holeta,,,4,1,
309,406,9.073011,35.69606,ET2021A3040117,Oma,,,4,1,
364,216,7.544633724,37.85442941,ET2021A3070211,Hosaina,,,7,1,
463,236,7.739007225,38.12155816,ET2021A3072008,Wilberg,,,7,1,
467,100,6.489709666,38.52335333,ET2021A3160007,Hagere Selam,,,7,1,
128,306,8.335571112,35.68235778,ET2021A3040316,Hurumu,,,4,1,
105,493,9.97466722,36.44833204,ET2021A3040202,Hinde,,,4,1,
163,391,9.192424241,37.93673392,ET2021A3040519,Beke,,,4,1,
150,394,8.996872222,37.33156611,ET2021A3040500,Ejaji,,,4,1,
256,353,8.828930611,38.36863943,ET2021A3041305,Tagi,,,4,1,
70,560,10.95513784,36.9346806,ET2021A3030996,Enjebara,,,3,1,
203,204,7.400963896,39.39193662,ET2021A3040824,Silt'ana,,,4,1,
453,133,6.897323722,37.01463254,ET2021A3071705,Wushaye Bale,,,11,1,
491,285,8.192311578,34.26674126,ET2021A3120407,Itang,,,12,1,
63,538,10.67796619,37.37544152,ET2021A3030709,Jiga,,,3,1,
360,210,7.461095248,37.69048078,ET2021A3070214,Jajura,,,7,1,
16,516,10.4228419,39.25417618,ET2021A3030414,Degolo,,,3,1,
322,449,9.489694381,42.22561531,ET2021A3041002,Ijersa Goro,,,4,1,
93,441,9.393732446,35.33294424,ET2021A3040108,Geba Dafeno,,,4,1,
306,487,9.880157,37.077122,ET2021A3041908,Alibo,,,4,1,
146,421,9.263285317,38.08298845,ET2021A3040502,Goje,,,4,1,
162,343,8.729538901,37.47220149,ET2021A3040518,Shenen,,,4,1,
315,434,9.354349078,38.99660657,ET2021A3040615,Sirti,,,4,1,
493,308,8.329999924,33.74000168,ET2021A3120103,Kuach-Thiang  (Nibnib),,,12,1,
8,503,10.21204728,40.10160637,ET2021A3031003,Hadeleala,,,2,1,
84,510,10.30642234,39.98851664,ET2021A303100301,Senbete,,,3,1,
116,345,8.755033,36.498241,ET2021A3040214,Arjo,,,4,1,
304,435,9.36651514,37.11738403,ET2021A3041906,Hareto,,,4,1,
298,372,8.952404087,34.743552,ET2021A3041810,Nunu,,,4,1,
305,416,9.23906653,37.36452709,ET2021A3041907,Wayu,,,4,1,
277,230,7.674523908,36.83770682,ET2021A3040418,Jimma,,,4,1,
404,81,5.786189501,36.5656366,ET2021A3070709,Jinka,,,7,1,
448,156,7.049348354,36.97597315,ET2021A3071706,Alem Gena/ Kachi,,,11,1,
11,557,10.92254452,39.7841354,ET2021A3030407,Habru,,,3,1,
342,451,9.502100739,35.86269639,ET2021A3060403,Kemashi,,,6,1,
444,74,5.334211434,37.43587478,ET2021A3071301,Karat,,,7,1,
480,27,5.445950727,37.3326879,ET2021A3071303,Guro,,,7,1,
15,528,10.58364653,38.99773166,ET2021A3030413,Kelala,,,3,1,
433,45,6.058696599,37.17292409,ET2021A3071012,Kemba,,,7,1,
79,545,10.71957352,39.8729806,ET2021A3031006,Kemise,,,3,1,
272,78,5.780526465,38.40623371,ET2021A3041502,Kercha,,,4,1,
257,333,8.604339525,38.60624449,ET2021A3041307,Lemen,,,4,1,
89,475,9.68975379,35.25826343,ET2021A3040105,Kiltu Kara,,,4,1,
171,431,9.331419632,39.29094246,ET2021A3040610,Sheno,,,4,1,
395,134,6.918596287,37.53007556,ET2021A3070606,Bele,,,7,1,
106,490,9.954864286,36.86347147,ET2021A3040217,Kiremu,,,4,1,
498,396,9.01050669,38.7584762,ET2021A3140106,Addis Ababa,,,15,1,
388,48,6.077168106,38.20058964,ET2021A3070503,Fiseha Genet,,,7,1,
282,161,7.075422,38.780861,ET2021A3041704,Kofele,,,4,1,
286,120,6.739022741,38.7907992,ET2021A3041708,Kokosa,,,4,1,
215,445,9.433654705,42.11895823,ET2021A3041001,Kembolcha,,,4,1,
19,564,11.08005,39.74369,ET2021A3030417,Kombolcha,,,3,1,
455,166,7.106407999,36.6752634,ET2021A3071901,Amaia,,,11,1,
283,182,7.219773723,38.9302082,ET2021A3041705,Kore,,,4,1,
464,193,7.316667,38.083333,ET2021A3071401,Alaba,,,7,1,
323,282,8.127668717,41.66800931,ET2021A3041098,Kumbi,,,4,1,
220,420,9.237188996,41.82044695,ET2021A3041007,Kurfa Chele,,,4,1,
166,479,9.80601526,38.41843272,ET2021A3040604,Kuyu,,,4,1,
88,387,9.16481007,35.68240453,ET2021A3040104,Inango,,,4,1,
299,367,8.913980838,35.35426218,ET2021A3041811,Lalo Kile,,,4,1,
488,307,8.326658856,33.95340763,ET2021A3120102,Kuergeng,,,12,1,
12,554,10.86463441,39.18084936,ET2021A3030410,Akisita,,,3,1,
233,253,7.873921221,40.98950891,ET2021A3042102,Belitu,,,4,1,
21,542,10.70256737,39.26973998,ET2021A3030420,Weyinamba,,,3,1,
115,361,8.88658,36.487061,ET2021A3040212,Getema,,,4,1,
370,130,6.872534,38.443661,ET2021A3160022,Leku,,,7,1,
318,323,8.533333,38.9,ET2021A3040711,Adulala,,,4,1,
104,485,9.84490068,36.47788184,ET2021A3040201,Gelila,,,4,1,
134,271,8.088363,36.946991,ET2021A3040402,Limu Genet,,,4,1,
133,299,8.302165015,36.94749264,ET2021A3040401,Atnago,,,4,1,
380,117,6.688905421,38.25942285,ET2021A3160037,Hantate,,,7,1,
451,150,7.009887,37.27368374,ET2021A3071703,Gesa,,,11,1,
179,315,8.438024835,39.03058801,ET2021A3040704,Koka,,,4,1,
200,276,8.132456262,39.43280883,ET2021A3040821,Arb Gebeya,,,4,1,
489,303,8.298165463,33.68111616,ET2021A3120105,Nynininyang,,,12,1,
450,158,7.060520023,37.17203515,ET2021A3071702,Waka,,,11,1,
349,266,8.006116601,38.52930858,ET2021A3070107,Koshe,,,7,1,
481,154,7.035942587,37.10274494,ET2021A3071708,Mari,,,11,1,
408,218,7.561875827,35.40213156,ET2021A3070802,Gech'a,,,11,1,
236,37,5.911464984,39.63871912,ET2021A3041113,Bidre,,,4,1,
26,512,10.30857073,39.66042572,ET2021A3030597,Mehal Meda,,,3,1,
10,570,11.23533156,39.06791759,ET2021A3030421,Masha,,,3,1,
423,97,6.467796573,36.58615685,ET2021A3071501,Lehe,,,7,1,
223,390,9.171301492,41.33672381,ET2021A3041012,Hare Wacha,,,4,1,
475,107,6.554558,36.78368,ET2021A3071509,Woniba,,,7,1,
324,66,6.412892629,39.84867106,ET2021A3041112,Delo Mena,,,4,1,
86,482,9.798996001,35.10469819,ET2021A3040198,Mendi,,,4,1,
338,515,10.35420147,34.76121348,ET2021A3060301,Menge,,,6,1,
496,211,7.452822021,35.04764672,ET2021A3120308,Mengeshi (Goderie Mission),,,12,1,
439,127,6.833586,35.893269,ET2021A3071802,Bachuma,,,11,1,
440,115,6.645756,35.772991,ET2021A3071804,Jemu,,,11,1,
41,505,10.22267777,39.4480078,ET2021A3030521,Zemero,,,3,1,
30,499,10.11917584,39.65774448,ET2021A3030509,Molale,,,3,1,
185,318,8.4866425,39.83237622,ET2021A3040801,Tinsae Berhan,,,4,1,
208,405,9.07899705,41.17274692,ET2021A3040904,Mesela,,,4,1,
221,443,9.395636639,41.55689999,ET2021A3041009,Chelenko,,,4,1,
158,429,9.31709828,38.26690615,ET2021A3040514,Shino,,,4,1,
177,359,8.889092468,39.9184634,ET2021A3040799,Matahara,,,4,1,
130,300,8.298613072,35.58152923,ET2021A3040320,Metu,,,4,1,
228,338,8.658598362,41.84603316,ET2021A3041018,Huse,,,4,1,
51,519,10.43987,37.565022,ET2021A3030609,Amanu'el,,,3,1,
148,382,9.12932216,37.52024206,ET2021A3040504,Balemi,,,4,1,
22,508,10.2739036,38.92094341,ET2021A3030501,Rema,,,3,1,
225,358,8.87086562,42.12481081,ET2021A3041014,Midega,,,4,1,
460,237,7.748309348,37.89435611,ET2021A3072004,Lera,,,7,1,
205,415,9.233475998,40.75541698,ET2021A3040901,Mieso,,,4,1,
39,366,8.926839791,39.4229175,ET2021A3030518,Arerti,,,3,1,
426,90,6.292246468,37.76649397,ET2021A3071005,Mi'irab Abaya,,,7,1,
363,175,7.144669107,37.79889785,ET2021A3070209,Dawa Town,,,7,1,
348,269,8.063783545,38.47145091,ET2021A3070118,Inseno,,,7,1,
459,231,7.678785859,38.35727543,ET2021A3072012,Mito,,,7,1,
251,1,3.740076639,38.57912975,ET2021A3041216,Hidilola,,,4,1,
441,148,6.994859145,35.58873069,ET2021A3071107,Mizan Teferi,,,11,1,
32,491,9.957031583,39.62932841,ET2021A3030511,Sela Dingay,,,3,1,
180,328,8.5893,39.12589667,ET2021A3040797,Mojo,,,4,1,
25,488,9.894657014,39.14500037,ET2021A3030504,Enewari,,,3,1,
44,565,11.07994167,37.87308889,ET2021A3030694,Mota,,,3,1,
316,423,9.292952711,38.56603069,ET2021A3042016,Segno Gebeya,,,4,1,
197,214,7.53061744,38.98280147,ET2021A3040817,Kersa,,,4,1,
275,75,5.335896166,39.57624685,ET2021A3041414,Negele,,,4,1,
87,452,9.506982147,35.50287765,ET2021A3040199,Nejo,,,4,1,
118,409,9.088034151,36.54715585,ET2021A3040297,Nekemte,,,4,1,
287,110,6.586403284,39.1057323,ET2021A3041709,Werka,,,4,1,
100,354,8.836411,35.798271,ET2021A3040115,Yirga Dejen,,,4,1,
153,324,8.532880997,37.42712389,ET2021A3040508,Silk Amta,,,4,1,
405,54,6.180268335,36.6622133,ET2021A3070703,Gelela,,,7,1,
117,347,8.761164159,36.63558797,ET2021A3040215,Nunu,,,4,1,
476,57,6.226673216,36.84471499,ET2021A3071506,Shifete,,,7,1,
139,241,7.755046657,37.21949508,ET2021A3040411,Yedi,,,4,1,
140,221,7.630775365,37.25146448,ET2021A304041101,Nada,,,4,1,
61,562,10.99663971,37.42316912,ET2021A3030706,Gebez Maryam,,,3,1,
470,56,6.213927045,38.31486535,ET2021A3070509,Repe,,,7,1,
325,59,6.54394,41.79485,ET2021A3050809,Raso,,,5,1,
240,132,6.883796354,41.12986701,ET2021A3042104,Dhedecha Bela,,,4,1,
193,250,7.862886489,39.62906021,ET2021A3040812,Robe,,,4,1,
242,167,7.118045556,40.00378444,ET2021A3041119,Robe Bale,,,4,1,
271,28,5.453142902,39.00562894,ET2021A3041412,Kenticha,,,4,1,
6,492,9.973756255,40.14066304,ET2021A3020502,Kumame,,,2,1,
462,217,7.568607192,38.1781731,ET2021A3072006,Alem Gebeya,,,7,1,
114,386,9.170244181,36.46545576,ET2021A3040211,Kidame Gebeya,,,4,1,
437,94,6.300757,36.878471,ET2021A3071507,Sawla,,,7,1,
13,563,11.03175044,38.76862631,ET2021A3030411,Ajibar/ Ashenga,,,3,1,
410,245,7.82959949,35.8242747,ET2021A3070901,Yadeta,,,11,1,
103,355,8.840923,35.651901,ET2021A3040118,Debeso,,,4,1,
263,363,8.910293268,38.62541901,ET2021A3042009,Sebeta,,,4,1,
260,317,8.461383692,38.25016634,ET2021A3041310,Arbu Chulule,,,4,1,
292,357,8.86350877,35.07284173,ET2021A3041812,Sadi,,,4,1,
445,32,5.587044025,37.5464826,ET2021A3071302,Segen,,,7,1,
60,561,10.99113936,37.21777754,ET2021A3030705,Gesh Abai Michael,,,3,1,
135,259,7.925934,37.415501,ET2021A3040403,Deneba,,,4,1,
424,99,6.469413109,37.46001237,ET2021A3071003,Selam Ber,,,7,1,
58,524,10.54630349,37.76263473,ET2021A3030616,Robe Gebaya,,,3,1,
176,385,9.15053892,39.02158245,ET2021A3042018,Sendata,,,4,1,
192,229,7.671553614,40.19782894,ET2021A3040811,Seru,,,4,1,
142,264,7.978780033,36.2046148,ET2021A3040413,Gatira,,,4,1,
241,208,7.456391081,40.97817938,ET2021A3042105,Micha Biliso,,,4,1,
326,153,7.042505656,41.62687874,ET2021A304210501,Salahad,,,5,1,
269,77,5.763346582,38.89594263,ET2021A3041499,Shakiso,,,4,1,
279,192,7.298312696,38.352638,ET2021A3041702,Aje,,,4,1,
300,460,9.56638024,37.09889424,ET2021A3041902,Shambu,,,4,1,
289,179,7.196625517,38.59712147,ET2021A3041711,Shashemene,,,4,1,
143,212,7.50479761,36.51307586,ET2021A3040414,Shebe,,,4,1,
56,520,10.44688185,38.34546193,ET2021A3030614,Yeidwuha,,,3,1,
477,160,7.059573,35.491749,ET2021A3071101,Kuza,,,11,1,
340,532,10.59935317,34.77866613,ET2021A3060304,Sherkole,,,6,1,
366,180,7.206615001,37.7782307,ET2021A3070310,Shishicho,,,7,1,
195,224,7.618620916,39.49333784,ET2021A3040814,Gobesa,,,4,1,
420,187,7.250049355,35.88350177,ET2021A3070913,Shishinda,,,11,1,
33,495,10,39.9,ET2021A3030595,Shewa Robit,,,3,1,
358,173,7.137102223,37.95375833,ET2021A3070212,Shone,,,7,1,
112,399,9.033333,36.866667,ET2021A3040209,Sire,,,4,1,
141,258,7.910484289,36.10225264,ET2021A3040412,Sigmo,,,4,1,
456,256,7.916948735,38.23599176,ET2021A3072002,Alkeso,,,7,1,
278,174,7.139980391,38.11246798,ET2021A3041701,Robi,,,4,1,
199,294,8.27663743,39.49326465,ET2021A3040820,Sire,,,4,1,
42,486,9.749862593,39.19137745,ET2021A3030523,Deneba,,,3,1,
438,143,6.966004,35.764141,ET2021A3071108,Show Gimira,,,11,1,
262,322,8.530100344,38.62551812,ET2021A3041314,Tere,,,4,1,
401,129,6.863905555,37.76311889,ET2021A3070613,Sodo,,,7,1,
403,36,5.90679375,36.57818629,ET2021A3070702,Gazer,,,7,1,
190,263,7.973943005,39.68901909,ET2021A3040808,Kula,,,4,1,
172,425,9.303341,38.75304,ET2021A3042013,Chancho,,,4,1,
31,484,9.849807869,39.75913794,ET2021A3030510,Debresina,,,3,1,
394,118,6.7026548,37.7750723,ET2021A3070616,Humbo,,,7,1,
248,72,5.063127447,37.38493539,ET2021A3041212,Teltele,,,4,1,
194,243,7.808574371,39.51344776,ET2021A3040813,Ticho,,,4,1,
409,181,7.195273659,35.42069421,ET2021A3070804,Tepi,,,11,1,
449,176,7.143957608,37.16382494,ET2021A3071711,Tarcha,,,11,1,
466,106,6.555141748,38.53686906,ET2021A3160026,Teticha,,,7,1,
154,352,8.81580244,37.6549953,ET2021A3040509,Tikur Inchini,,,4,1,
136,246,7.849941787,37.23624984,ET2021A3040404,Dimtu,,,4,1,
447,162,7.090432004,37.03836865,ET2021A3071701,Tocha,,,11,1,
161,370,8.967011857,37.7591238,ET2021A3040517,Guder,,,4,1,
258,335,8.614115582,38.36486677,ET2021A3041308,Bantu,,,4,1,
458,251,7.861780634,38.41747965,ET2021A3072009,T'ora,,,7,1,
415,168,7.118486,36.469871,ET2021A3070906,Oda,,,11,1,
207,414,9.213808888,41.09705723,ET2021A3040903,Hirna,,,4,1,
432,46,6.058342825,36.88135853,ET2021A3071504,Beto,,,7,1,
264,49,6.094612059,38.58980631,ET2021A3041401,Haru Wachu,,,4,1,
419,178,7.148683763,35.81280463,ET2021A3070914,Wacha,,,11,1,
329,8,4.498557657,38.65974688,ET2021A3041298,Web,,,4,1,
268,79,5.7796,39.30603,ET2021A3041404,Wadera,,,4,1,
494,311,8.352071819,33.4458378,ET2021A3120104,Matar,,,12,1,
314,496,10.00144256,38.24728661,ET2021A3040601,Gohatsiyon,,,4,1,
109,400,9.033333,36.666667,ET2021A3040206,Gimata,,,4,1,
18,530,10.59472754,38.76507879,ET2021A3030416,Wegedi,,,3,1,
355,295,8.281042224,37.77813721,ET2021A3070114,Welkite,,,7,1,
66,534,10.64292169,36.94245727,ET2021A3030711,Shende,,,3,1,
385,95,6.315077885,38.25996534,ET2021A3070501,Wenago,,,7,1,
335,531,10.62425699,35.66559678,ET2021A3060203,Debre Zeit,,,6,1,
254,334,8.604365964,37.92368289,ET2021A3041302,Chitu,,,4,1,
17,529,10.59189038,39.43565571,ET2021A3030423,Were Ilu,,,3,1,
229,320,8.538072778,37.97070667,ET2021A3041311,Weliso,,,4,1,
384,155,7.019822733,38.60862816,ET2021A3160019,Chuko,,,7,1,
457,248,7.853489102,38.18714584,ET2021A3072010,Werabe,,,7,1,
402,47,6.060951574,36.58870967,ET2021A3070711,Wib Hamer,,,7,1,
169,458,9.551903299,38.86954306,ET2021A3040608,Muke Turi,,,4,1,
246,13,4.889292233,38.09354075,ET2021A3041296,Yabelo,,,4,1,
291,350,8.774862143,34.82093751,ET2021A3041802,Tejo,,,4,1,
174,177,9.619631612,38.64522136,ET2021A3040614,Fital,,,4,1,
124,305,8.341297222,35.81570833,ET2021A3040309,Yayo,,,4,1,
386,53,6.161413482,38.20300698,ET2021A3070512,Yirga Chefe,,,7,1,
372,122,6.748362956,38.41070212,ET2021A3160020,Yirgalem,,,7,1,
97,371,8.952336839,35.44934231,ET2021A3040112,Yubdo,,,4,1,
452,171,7.131887337,37.29085831,ET2021A3071710,Kerewa,,,11,1,
431,86,6.250493979,37.01889873,ET2021A3071503,Galma,,,7,1,
73,544,10.70968697,36.4902385,ET2021A3030997,Zigem,,,3,1,
502,695,14.315475,38.169975,ET2021A3010111,Adi Daero,,,1,1,
501,699,14.45329,37.985188,ET2021A3010112,Adi Hageray,,,1,1,
503,683,14.1138911,38.47530176,ET2021A3010109,Selekleka,,,1,1,
839,749,6.260944984,42.63001991,ET2021A3050699,Abakoro,,,5,1,
574,658,13.35819839,39.74988024,ET2021A3020209,Abala,,,2,1,
743,735,6.641543914,37.82206195,ET2021A3070621,Faracho,,,7,1,
666,785,8.455610123,39.21704962,ET2021A3040703,Wonji Gefersa,,,1,1,
582,823,11.15266443,40.51970914,ET2021A3020109,Adear,,,1,1,
586,660,13.45,38.066667,ET2021A3030101,Adi Arcai,,,3,1,
760,837,9.046943435,38.7200786,ET2021A3140108,Addis Ketema,,,14,1,
632,572,11.26371167,37.48857111,ET2021A3030799,Adiet,,,3,1,
722,817,7.20851617,37.98431005,ET2021A3070309,Adelo,,,1,1,
608,611,12.12499527,37.78409675,ET2021A3030299,Addis Zemen,,,3,1,
569,585,11.52066183,41.58265417,ET2021A3020104,Afambo,,,2,1,
577,645,13.21358688,40.85468568,ET2021A3020207,Afdera,,,2,1,
753,845,8.896392606,38.77069953,ET2021A3140101,,,,14,1,
601,605,11.93156379,36.87071791,ET2021A3031115,Shahura,,,3,1,
735,708,8.010215205,38.21504267,ET2021A3072001,Qewaqoto,,,7,1,
629,584,11.5154379,39.6083186,ET2021A3030404,Wuchale,,,3,1,
645,793,11.83888086,39.14703651,ET2021A3030313,Estayesh,,,1,1,
759,841,9.034576811,38.75665552,ET2021A3140109,,,,14,1,
815,348,8.75066,43.37108,ET2021A3050395,Ararso,,,5,1,
767,11,4.758074509,39.23648342,ET2021A304120801,Hudat,,,5,1,
568,587,11.57443921,41.43365392,ET2021A3020111,Asayita,,,2,1,
829,481,9.78581,43.20826,ET2021A3050205,Aw-Barre,,,5,1,
813,297,8.258622,44.151791,ET2021A3050303,Aware,,,5,1,
578,610,12.0786744,40.07083173,ET2021A3020401,Derayitu,,,2,1,
834,547,10.75188163,42.57177538,ET2021A3050101,Aysha,,,5,1,
597,627,12.55098594,37.06349604,ET2021A3031199,Aykel,,,3,1,
794,163,7.084374279,42.27928312,ET2021A3051001,Ayun,,,5,1,
819,397,9.019329639,42.40050551,ET2021A3041004,Babile,,,5,1,
639,589,11.59180284,37.38705681,ET2021A3030712,Bahir Dar,,,3,1,
773,26,4.638070462,42.61355089,ET2021A3050807,Barey,,,5,1,
744,763,6.830947712,37.61882014,ET2021A3070622,Beklo Senyo,,,1,1,
575,671,13.86275597,40.02188434,ET2021A3020205,Berahale,,,2,1,
778,50,6.09892,43.21951,ET2021A3050608,Bor-ano,,,5,1,
587,642,13.11795,38.43877,ET2021A3030102,Dil Yibza,,,3,1,
564,746,12.81250984,40.97324453,ET2021A3020208,Sodata,,,2,1,
845,755,8.474225,43.246777,ET2021A3050306,Bilail-bur,,,5,1,
709,726,10.21939781,35.08893146,ET2021A3060306,Bilidigilu,,,6,1,
658,716,8.415702378,35.61521791,ET2021A3040315,Nopa,,,4,1,
701,812,5.705890429,38.59256241,ET2021A3041596,Birbirsa Bera,,,1,1,
703,821,7.10396348,38.48984359,ET2021A3041798,Bishan Guracha,,,1,1,
847,757,7.074706283,44.16564469,ET2021A3050599,Bodaley,,,5,1,
801,220,7.437898999,46.64780698,ET2021A3050702,Bokh,,,5,1,
766,9,4.515152082,41.53666582,ET2021A3050999,Bokolmay,,,5,1,
761,844,9.017172805,38.80205819,ET2021A3140104,,,,14,1,
748,828,6.119444,37.349267,ET2021A3071014,Gezeso,,,1,1,
644,795,12.16473,38.836731,ET2021A3030301,Aina Jesus,,,1,1,
707,724,10.60019246,36.073636,ET2021A3060207,Bulen,,,6,1,
739,734,6.662405618,38.87308228,ET2021A3160024,Bura,,,7,1,
680,836,9.062497261,38.64667783,ET2021A3042001,Burayu,,,4,1,
803,226,7.598327152,43.77632321,ET2021A3050394,Burqod,,,5,1,
783,76,5.336673646,41.88245785,ET2021A3050802,Charati,,,5,1,
571,590,11.60158333,40.01602167,ET2021A3020106,Chifra,,,2,1,
827,469,9.616041245,42.75322207,ET2021A304101501,Tulu Guled,,,5,1,
727,721,6.530102454,39.09103052,ET2021A3160014,Chire,,,7,1,
705,800,9.381514137,37.39003802,ET2021A3041911,Aaga,,,1,1,
690,814,8.302640907,37.1145308,ET2021A3040415,Bege,,,1,1,
741,760,6.02726499,38.26392282,ET2021A3070510,Churso,,,1,1,
679,805,8.925594,35.047729,ET2021A3041803,Cachi,,,1,1,
576,689,14.20713527,39.91598278,ET2021A3020206,Adkuwa,,,2,1,
786,104,6.509208841,43.49365531,ET2021A3050603,Danan,,,5,1,
716,727,11.2951592,36.2439858,ET2021A3060201,Manbuk,,,6,1,
800,219,7.557225538,45.28836136,ET2021A3050701,Danod,,,5,1,
797,198,7.302267644,45.43664799,ET2021A3050788,Daratole,,,5,1,
812,293,8.227307,44.695057,ET2021A3050392,Daror,,,5,1,
676,707,6.644243717,40.97466202,ET2021A3042106,Mio/ Kosi,,,4,1,
648,583,11.48123043,38.92828905,ET2021A3030311,Shogaye,,,3,1,
589,643,13.15815,37.900291,ET2021A3030198,Debark,,,3,1,
775,41,5.983333,44.4,ET2021A3050504,Har Ad,,,5,1,
616,603,11.8522,38.00988,ET2021A3030210,Debre Tabor,,,3,1,
634,578,11.35573326,36.95377428,ET2021A3030713,Dure Bete,,,3,1,
811,286,8.217162,43.558781,ET2021A3050307,Degehabur,,,5,1,
808,265,7.984728,43.021372,ET2021A3050301,Degah Medo,,,5,1,
636,621,12.43017972,38.71610484,ET2021A3030803,Amed Werk,,,3,1,
770,19,5.215532406,39.91121838,ET2021A3050991,Deka,,,5,1,
622,588,11.59344978,39.21667479,ET2021A3030406,Wegel T'ena,,,3,1,
830,483,9.81078,42.60241,ET2021A3050102,Dambel,,,5,1,
614,598,11.78214022,37.55849296,ET2021A3030209,Hamusit,,,3,1,
615,594,11.70801537,37.63016263,ET2021A303020901,Anbesame,,,3,1,
683,776,7.902316719,35.60884993,ET2021A3040317,Goredamo,,,1,1,
846,756,7.755455,44.504381,ET2021A3050399,Dig,,,0,1,
795,183,7.227752778,42.69782389,ET2021A3051006,Dihun,,,5,1,
765,4,4.176949758,42.05789593,ET2021A3050902,Dolo Ado,,,5,1,
835,703,4.277553328,42.06252449,ET2021A3050808,Dolo Bay,,,5,1,
685,802,8.466667,35.816667,ET2021A3040324,Elemu,,,1,1,
565,596,11.7471724,41.07789096,ET2021A3020107,Dubti,,,2,1,
667,834,8.792885152,38.90352021,ET2021A3042008,Dukem,,,4,1,
603,619,12.40718826,38.08623943,ET2021A3031117,Guhala,,,3,1,
596,622,12.42771938,37.32690213,ET2021A3031111,Kolla Debba,,,3,1,
613,592,11.61321463,38.06133333,ET2021A3030208,Mekaneyesus,,,3,1,
781,69,6.464567394,42.17520045,ET2021A3050601,East Imi,,,5,1,
607,612,12.12935501,38.04704398,ET2021A3030201,Ebinat,,,3,1,
663,801,9.003924464,38.2461103,ET2021A3040590,Welenkome,,,1,1,
848,759,6.312590049,44.42697798,ET2021A3050598,El-Ogaden,,,1,1,
776,43,6.02167,43.9067,ET2021A3050698,Elale,,,5,1,
567,608,12.04792123,41.92645046,ET2021A3020102,Elida'ar,,,2,1,
785,83,5.842513689,42.09915651,ET2021A3050804,Elkere,,,5,1,
788,114,6.61508,43.1349,ET2021A3051002,Elwayne,,,5,1,
572,648,13.25622987,40.0011324,ET2021A3020201,Lakora,,,2,1,
826,459,9.564779207,41.37730961,ET2021A3050104,Erer,,,5,1,
579,600,11.8222232,39.9195914,ET2021A3020402,Alele Subula,,,2,1,
768,15,5.091839055,45.12019625,ET2021A3050607,Ferfer,,,5,1,
810,279,8.139931373,42.2946809,ET2021A3050402,Fik,,,5,1,
769,16,5.11503,40.658558,ET2021A3050901,Filtu,,,5,1,
832,509,10.49205236,41.24537114,ET2021A3050199,Gablalu,,,5,1,
792,152,6.969992999,46.41353999,ET2021A3050703,Geladi,,,5,1,
842,752,7.547835859,47.11888263,ET2021A3050799,Galahamur,,,5,1,
796,194,7.308,43.291667,ET2021A3051003,Garbo,,,5,1,
809,274,8.117399212,45.34721416,ET2021A3050304,Gashamo,,,5,1,
655,736,12.409989,39.015379,ET2021A3030804,Asketema,,,3,1,
647,794,11.87495239,39.30163708,ET2021A3030312,Ahun Tegegn,,,1,1,
693,833,8.821792228,38.82787541,ET2021A3042098,Gelan,,,4,1,
599,634,12.77731831,36.40494392,ET2021A3031292,Genda Wuha,,,3,1,
619,606,12.00629332,39.28460241,ET2021A3030303,Muja,,,3,1,
749,830,7.145356432,35.67707362,ET2021A3071106,Dizu,,,11,1,
840,750,4.905180375,43.21770425,ET2021A3050899,God-god,,,5,1,
772,24,5.955396644,43.55217737,ET2021A3050696,Gode,,,5,1,
790,125,6.781561,44.571755,ET2021A3050595,Kudunbur,,,5,1,
675,715,8.810922273,41.56297207,ET2021A3041017,Burka,,,4,1,
737,758,7.559793541,37.65202905,ET2021A3070202,Habcho,,,1,1,
604,629,12.628812,37.469079,ET2021A3031118,Gondar,,,3,1,
594,618,12.38203362,37.55480367,ET2021A3031110,Maksenyit,,,3,1,
678,809,5.555876732,39.38790131,ET2021A3041413,Hare Kelo,,,1,1,
740,777,6.873698693,38.5813121,ET2021A3160011,Gorche,,,1,1,
777,44,6.04740715,41.34584427,ET2021A3050903,Goro Bakaksa,,,5,1,
674,788,9.373675,41.376629,ET2021A3041010,Karamile,,,1,1,
696,798,9.188551971,41.57201228,ET2021A3041089,Goro Mutuli 2,,,1,1,
825,454,9.518378,41.337212,ET2021A3050198,Gota,,,5,1,
706,574,11.2700595,35.28604434,ET2021A3060202,Mankush,,,6,1,
623,602,11.83938664,39.74002298,ET2021A3030307,Hara,,,3,1,
698,748,3.568455513,39.0454496,ET2021A3041290,Moyale S,,,5,1,
838,743,3.571598049,39.04486731,ET2021A304129001,Moyale O,,,4,1,
756,838,9.057990072,38.73459239,ET2021A3140110,,,,14,1,
581,613,12.14331423,39.98491937,ET2021A3020405,Keliwan,,,2,1,
661,768,8.002410289,36.48857751,ET2021A3040416,Toba,,,1,1,
671,786,9.013525501,40.38931326,ET2021A3040991,Bordele,,,1,1,
702,813,5.018399346,39.71137289,ET2021A3041497,Hadhesa,,,1,1,
670,710,8.251954836,39.88835649,ET2021A3040819,Moyo,,,4,1,
610,792,11.80760335,38.21879219,ET2021A3030212,Kimir Dingay,,,1,1,
806,244,7.803833333,43.94033333,ET2021A3050305,Gunagado,,,5,1,
731,713,6.857649008,35.33695411,ET2021A3071102,Beftu,,,11,1,
821,419,9.228768333,42.52157222,ET2021A304100301,Gursum,,,5,1,
724,764,7.194558398,37.66437047,ET2021A3070312,Hadero,,,1,1,
833,517,10.42506858,42.24020196,ET2021A3050106,Adigala,,,5,1,
651,848,9.261977524,39.22344639,ET2021A303051601,Tulefa town,,,4,1,
805,234,7.690802649,42.18620052,ET2021A3050404,Hamero,,,5,1,
831,489,9.86667,43.05,ET2021A3050299,Harawo,,,5,1,
771,20,5.222519042,42.1788408,ET2021A3050806,Hargele,,,5,1,
681,807,9.842715385,36.31105183,ET2021A3040204,Horo,,,1,1,
700,820,6.161428459,38.41079263,ET2021A3041490,Kofele,,,1,1,
672,819,9.392394573,42.01271711,ET2021A3041019,Haro Maya,,,1,1,
823,446,9.4373,43.0918,ET2021A3050298,Haroreys,,,5,1,
820,418,8.926259,43.743594,ET2021A3050207,Harshin,,,5,1,
793,157,7.052725553,38.4686074,ET2021A316001801,Hawasa,,,7,1,
738,771,7.037519247,38.35712186,ET2021A3160002,Dore Bafano,,,1,1,
695,740,8.160859755,40.49219006,ET2021A3040915,Rimeti,,,4,1,
664,717,9.909803529,38.51845562,ET2021A3040603,Ejere,,,4,1,
784,80,5.754403064,44.57050489,ET2021A3050597,Higlooley,,,5,1,
630,575,11.31272,39.678261,ET2021A3030499,Haik,,,3,1,
742,826,6.767372536,37.86586953,ET2021A3070619,Bade,,,1,1,
710,730,10.31362675,34.63243805,ET2021A3060307,Homosha,,,6,1,
704,816,9.742448025,37.0326305,ET2021A3041912,Sekela,,,1,1,
844,754,6.866069665,43.47136372,ET2021A3051095,Horshagah,,,5,1,
588,639,13.00704427,38.10384709,ET2021A3030103,Mekane Berhan,,,3,1,
638,586,11.56670229,36.48945837,ET2021A3030906,Fendka,,,3,1,
668,783,8.384113978,39.68474244,ET2021A3040804,Agere Sisay,,,1,1,
822,439,9.350134566,42.79916093,ET2021A3050293,Jijiga,,,5,1,
752,831,7.776709,33.932,ET2021A3120204,Ognogi,,,12,1,
723,766,7.285587639,37.75159535,ET2021A3070304,Hobecheka,,,1,1,
745,827,6.804862802,37.4707915,ET2021A3070620,Lasho,,,1,1,
817,380,9.101999489,43.17577279,ET2021A3050296,K'ebri Beyah,,,5,1,
818,395,8.991048943,42.91595233,ET2021A3050206,Mulla,,,5,1,
789,123,6.739629863,44.27826482,ET2021A3050592,Kebridehar,,,5,1,
774,33,5.59246016,44.19954053,ET2021A3050605,Kelafo,,,5,1,
673,789,9.454787844,41.86500218,ET2021A3041008,K'ersa,,,1,1,
659,718,7.709883179,36.97696656,ET2021A3040405,Sirbo,,,4,1,
736,769,8.020226517,38.32651403,ET2021A3072011,Kibet,,,1,1,
729,719,6.752925398,37.3417253,ET2021A3070610,Kindo Halala,,,7,1,
641,849,12.81660286,38.017089,ET2021A3031122,Kinfaz Begela,,,3,1,
758,846,9.008856656,38.76606189,ET2021A314010601,,,,14,1,
618,614,12.1616396,39.63281891,ET2021A3030399,Kobo,,,3,1,
841,751,5.12,43.176,ET2021A3050898,Kohle,,,5,1,
755,842,9.001054842,38.69796091,ET2021A3140103,,,,14,1,
583,747,12.403506,41.183,ET2021A3020108,Guyah/60,,,2,1,
573,677,13.9728569,39.86616026,ET2021A3020202,Konaba,,,2,1,
708,732,10.57162015,34.35233964,ET2021A3060302,Hor Azahab,,,6,1,
628,573,11.27272,39.542969,ET2021A3030403,Kuta Ber,,,3,1,
626,607,12.03247811,39.04136752,ET2021A3030398,Lalibela,,,3,1,
787,109,6.56154,43.82256,ET2021A3050596,Lasdhankayre,,,5,1,
592,630,12.74232,37.414188,ET2021A3031108,Tikil Dingay,,,3,1,
649,847,10.9850513,39.27058054,ET2021A303041001,Tulu Awlia (Gimbi),,,3,1,
692,835,9.081840701,38.90765391,ET2021A3042004,Lege Tafo,,,4,1,
843,753,6.788888,44.984075,ET2021A3050798,Lehel-Yucub,,,5,1,
656,806,9.614487606,35.31936385,ET2021A3040197,Gori,,,1,1,
662,787,8.970746111,37.54031778,ET2021A3040597,Babich,,,1,1,
757,840,9.014769229,38.73443296,ET2021A3140105,,,,14,1,
732,770,6.259158761,35.52194191,ET2021A3071807,Tum,,,11,1,
725,778,6.938423689,38.56485653,ET2021A3160012,Manicho,,,1,1,
730,714,5.87403835,36.81606556,ET2021A3070707,Liemo Giento,,,7,1,
688,775,7.4670659,37.04090271,ET2021A3040490,Gariru Kedida,,,1,1,
715,731,9.37420852,34.43863378,ET2021A3060508,Tongo,,,6,1,
802,225,7.608639429,44.94017282,ET2021A3050586,Marsin,,,5,1,
837,741,5.805682,39.925373,ET2021A304111301,Karsadula,,,5,1,
650,796,10.9240256,38.70080826,ET2021A3030419,Denisa,,,1,1,
620,597,11.76050301,38.75441588,ET2021A3030304,Filahit,,,3,1,
684,803,8.674563,36.030441,ET2021A3041618,Meko,,,1,1,
699,808,5.489260674,38.61084747,ET2021A3041518,Melka Soda,,,1,1,
687,780,7.730659,36.747211,ET2021A3040406,Yabo,,,1,1,
642,609,12.066667,38.366667,ET2021A3030213,Aghissa,,,3,1,
652,790,10.17687458,39.59929455,ET2021A3030522,Wogere,,,1,1,
633,581,11.41482166,37.16027487,ET2021A3030797,Mer'awi,,,3,1,
624,593,11.66075704,39.6586203,ET2021A3030397,Mersa,,,3,1,
691,799,9.510773492,38.21550044,ET2021A3040594,Mechara,,,1,1,
598,761,12.94918021,36.15963865,ET2021A3031224,Metema,,,1,1,
814,314,8.415972026,41.88418064,ET2021A304101801,Mayumulke,,,5,1,
591,667,13.6966987,36.4751379,ET2021A3031223,Abderafi,,,3,1,
824,447,9.466667,41,ET2021A3050107,Afdam,,,5,1,
570,582,11.420041,40.761223,ET2021A3020105,Mile,,,2,1,
590,662,13.46446389,36.48535271,ET2021A3031206,Abrha jara,,,3,1,
719,706,7.691595711,37.80411259,ET2021A3070201,Morsito,,,7,1,
750,773,7.7977722,38.0197199,ET2021A3072007,Qilto,,,1,1,
713,729,9.360331414,36.18900244,ET2021A3060405,Migniga /Soge,,,6,1,
764,2,3.767588,39.220821,ET2021A3041210,Ley,,,5,1,
816,356,4.168616256,40.00768332,ET2021A3051187,Mubarek,,,5,1,
718,723,8.240759226,38.06104972,ET2021A3070112,Hawariyat,,,7,1,
782,73,5.24321,44.732571,ET2021A3050606,Mustahil,,,5,1,
611,595,11.73727252,38.47194453,ET2021A3030215,Nifas Mewcha,,,3,1,
754,843,8.935001946,38.73256257,ET2021A3140102,,,,14,1,
686,815,8.581261022,37.10948063,ET2021A3040499,Alga,,,1,1,
747,737,5.180272662,36.0923491,ET2021A3070708,Kangaten,,,7,1,
677,810,5.653276282,38.79654618,ET2021A3041405,Megado,,,1,1,
689,774,7.505911557,37.33517418,ET2021A3040491,Dekano,,,1,1,
714,733,11.25924656,36.38377799,ET2021A3060206,Alimu,,,6,1,
763,0,3.45,39.55,ET2021A3051198,Qada Duma,,,5,1,
600,616,12.2,35.9,ET2021A3031214,Gelegu,,,3,1,
804,233,7.678922821,42.83418494,ET2021A3051005,Sagag,,,5,1,
746,772,6.118727736,35.99393858,ET2021A3070701,Hana,,,1,1,
657,711,7.896728004,35.28844846,ET2021A3040313,Birbirsa,,,4,1,
566,599,11.78818581,41.0065706,ET2021A3020198,Semera,,,2,1,
712,725,10.06812571,35.27753976,ET2021A3060402,Diza /Koncho,,,6,1,
660,779,7.604786758,36.72598856,ET2021A3040409,Seka,,,1,1,
637,628,12.62874,39.031151,ET2021A3030807,Sek'ot'a,,,3,1,
612,579,11.39749003,38.23758044,ET2021A3030207,Wegada,,,3,1,
653,791,11.683333,36.95,ET2021A3030701,Liben,,,1,1,
798,203,7.366665999,41.7666666,ET2021A304210502,Legehida,,,5,1,
694,784,8.426514476,40.25103366,ET2021A3040893,Timuga,,,1,1,
720,722,7.506893984,38.09116193,ET2021A3070204,Bonosha,,,7,1,
799,207,7.403816648,43.92580298,ET2021A3050501,Shaygosh,,,5,1,
779,52,6.091733449,44.76628741,ET2021A3050503,Shilabe,,,5,1,
828,474,9.686602953,41.84547689,ET2021A3050103,Shinile,,,5,1,
665,709,9.181196277,38.755644,ET2021A3042005,Sululta,,,4,1,
733,712,6.0712896,35.4390815,ET2021A3071806,Kebusho,,,11,1,
697,811,5.608919846,38.14927871,ET2021A3041594,Soyoma,,,1,1,
605,638,12.99052403,37.29429844,ET2021A3031120,Sanja,,,3,1,
606,636,12.92302701,37.04795332,ET2021A303112001,Masero Denb,,,3,1,
617,615,12.19508323,37.05145919,ET2021A3031121,Delgi,,,3,1,
585,742,10.94466489,40.21428392,ET2021A3020501,Telalak,,,2,1,
721,765,7.280111187,37.54028174,ET2021A3070301,Mudu,,,1,1,
627,576,11.3220113,39.24843791,ET2021A3030402,Tenta,,,3,1,
580,624,12.480512,40.31432467,ET2021A3020403,Alelu,,,2,1,
654,797,12.704353,39.210053,ET2021A3030808,Tsata,,,1,1,
640,647,13.25,37.25,ET2021A3031107,Kirakir,,,3,1,
717,832,10.179431,34.851135,ET2021A3060308,Undulu,,,6,1,
621,591,11.6072079,38.93120337,ET2021A3030305,Kon,,,3,1,
646,739,11.68806709,38.92310853,ET2021A303030501,Gishen,,,3,1,
849,762,9.598683969,43.33010179,ET2021A3050295,Wajale City,,,1,1,
682,804,8.821182806,36.92058848,ET2021A3040216,Mote,,,1,1,
791,149,6.972605562,45.34243139,ET2021A3050704,Warder,,,5,1,
593,631,12.76869977,37.62487281,ET2021A3031109,Amba Giorgis,,,3,1,
751,829,7.463946999,38.224258,ET2021A3071404,Besheno,,,1,1,
602,623,12.47666424,37.82708403,ET2021A3031116,Arbaya,,,3,1,
595,617,12.33191,37.22678,ET2021A3031125,Chwahit,,,3,1,
643,580,11.4109148,37.9548396,ET2021A3030211,Welesh,,,3,1,
780,68,6.457279848,42.13831341,ET2021A3050805,West Imi,,,5,1,
625,601,11.82607,39.592609,ET2021A3030309,Weldiya,,,3,1,
728,781,7.046599726,38.61340976,ET2021A3160036,Kela/ Wendo Genet,,,1,1,
726,720,6.755160954,38.50680048,ET2021A3160013,Bokaso,,,7,1,
631,577,11.33782614,39.77081511,ET2021A3030422,Bestima,,,3,1,
609,604,11.92468407,37.69523415,ET2021A3030293,Wereta,,,3,1,
807,255,7.894043239,42.58478297,ET2021A3050498,Yahob,,,5,1,
584,824,12.36594473,39.86994902,ET2021A3020404,Rakubdora,,,1,1,
762,839,9.021612899,38.79946274,ET2021A3140107,,,,14,1,
734,767,7.85,37.516667,ET2021A3072401,Fofa,,,1,1,
836,738,8.420405,43.856636,ET2021A3050382,Yoale,,,5,1,
711,728,9.8747187,36.09443344,ET2021A3060401,Zayi /Yaso,,,6,1,
635,632,12.77613668,38.79606318,ET2021A3030801,Tsitsika,,,3,1,
669,782,8.039587685,39.01678082,ET2021A3040806,Ogolcho,,,1,1,
557,656,13.29344913,38.98047901,ET2021A3010210,Yech'ila,,,1,1,
520,663,13.62295681,39.00180794,ET2021A3010211,Abiyi adi,,,1,1,
518,673,13.88360609,38.64518847,ET2021A3010207,Semema,,,1,1,
531,691,14.27707174,39.46007073,ET2021A3010308,Adigrat,,,1,1,
535,646,13.24804363,39.51501959,ET2021A3010607,Adi Gudom,,,1,1,
521,686,14.16343429,38.90173459,ET2021A3010212,Adwa,,,1,1,
559,666,13.68989701,39.58995942,ET2021A3010316,Agulae,,,1,1,
553,704,14.32996411,38.9851512,ET2021A3010215,Meriha Senay /Sehul,,,1,1,
541,620,12.41531,39.559662,ET2021A3010411,Alamata,,,1,1,
551,744,14.1226,38.09716,ET2021A3010105,Kisad Gaba,,,1,1,
530,672,13.8738229,39.73761797,ET2021A3010315,Atsbi Endasilasie,,,1,1,
522,685,14.12462422,38.72261931,ET2021A3010213,Aksum,,,1,1,
528,693,14.28028398,39.29058162,ET2021A3010310,Bizet,,,1,1,
562,825,12.8996621,39.33311087,ET2021A3010402,Amedwuha,,,1,1,
538,626,12.54001713,39.77257588,ET2021A3010414,Chercher,,,1,1,
516,690,14.27503609,38.59389544,ET2021A3010201,Chila,,,1,1,
546,652,13.566667,36.966667,ET2021A3010506,Dansheha,,,1,1,
552,665,13.67707437,38.327036,ET2021A3010115,Dima,,,1,1,
514,818,14.03759886,39.06809725,ET2021A3010203,Edaga Arbi,,,1,1,
526,688,14.18569557,39.56398795,ET2021A3010311,Edaga Hamus,,,1,1,
510,700,14.48964761,39.17010882,ET2021A3010216,Gerhusernay,,,1,1,
536,637,12.93572149,39.5151182,ET2021A3010404,Adishuhu,,,1,1,
513,681,14.09361,39.267132,ET2021A3010219,Nebelet,,,1,1,
505,674,13.947266,38.183042,ET2021A3010114,Endabaguna,,,1,1,
515,675,13.9442411,38.98807344,ET2021A3010218,May Kinetal,,,1,1,
511,692,14.27932,39.149719,ET2021A3010220,Enticho,,,1,1,
525,701,14.510014,39.55529402,ET2021A3010302,Dewhan,,,1,1,
527,679,14.05224819,39.57578337,ET2021A3010313,Freweyni,,,1,1,
558,654,13.77954014,39.35578042,ET2021A3010317,Tsigereda,,,1,1,
524,697,14.39869481,39.38341276,ET2021A3010301,Fatsi,,,1,1,
519,664,13.64712,39.17173,ET2021A3010605,Hagere Selam,,,1,1,
512,687,14.16685565,39.10669843,ET2021A3010217,Feres May,,,1,1,
529,678,13.97505946,39.42663767,ET2021A3010312,Hawzen,,,1,1,
507,682,14.09981449,38.28015227,ET2021A3010108,Shire Indasilase,,,1,1,
555,668,13.73327284,39.00250979,ET2021A3010221,Werk Amba,,,1,1,
540,625,12.50457,39.519112,ET2021A3010410,Korem,,,1,1,
539,633,12.78560271,39.53937034,ET2021A3010409,Maichew,,,1,1,
543,655,13.78669301,37.68791009,ET2021A3010509,Mezega,,,1,1,
542,680,14.06959585,36.57189075,ET2021A3010505,May Kadra,,,1,1,
506,651,13.57900215,38.14124353,ET2021A3010116,May Tsebri,,,1,1,
548,649,13.47860581,39.47354914,ET2021A3010701,Mekele,,,1,1,
549,661,13.47272,39.541851,ET2021A301070101,Kwiha,,,1,1,
537,635,12.8036614,39.6462265,ET2021A3010412,Mekhoni,,,1,1,
554,670,13.816667,38.816667,ET2021A3010209,Mahberedegoi,,,1,1,
509,698,14.41227167,38.78433211,ET2021A3010214,Rama,,,1,1,
533,657,13.32167124,39.17037475,ET2021A3010601,Gijet,,,1,1,
534,644,13.1908995,39.20071399,ET2021A3010606,Samira,,,1,1,
561,640,13.00922931,39.34036681,ET2021A3010401,Dela,,,1,1,
547,694,14.27916217,36.61606135,ET2021A3010504,Humera,,,1,1,
550,745,14.41384432,38.18773147,ET2021A3010110,Adi Nebri Id,,,1,1,
508,696,14.39645677,37.77341192,ET2021A3010107,Sheraro,,,1,1,
517,684,14.12154459,38.59329712,ET2021A3010206,Wukro Maray,,,1,1,
556,650,13.54355824,39.05263038,ET2021A3010222,Agebe,,,1,1,
545,659,13.39250048,37.40346058,ET2021A3010503,Ketema Nigus,,,1,1,
560,641,13.01234013,39.66883138,ET2021A3010608,Adikeyah,,,1,1,
544,653,13.74815551,37.32040801,ET2021A3010502,Adi Remets,,,1,1,
532,669,13.7918773,39.60271348,ET2021A3010309,Wikro,,,1,1,
523,702,14.52123701,39.38246161,ET2021A3010318,Zala Anbesa,,,1,1,
504,676,13.94878,38.454681,ET2021A3010103,Zana,,,1,1,
563,705,12.52815828,39.29024722,ET2021A3010413,Zata,,,1,1,
